"","start_time","duration","ntransfers","stop_id","stop_name","stop_lon","stop_lat"
"1",14:28:00,01:23:00,0,"8100027","Payerbach-Reichenau Bahnhof",15.863012,47.69605
"2",13:03:00,00:42:00,0,"8100028","Semmering Bahnhof",15.831028,47.639704
"3",12:03:00,00:28:00,0,"8100029","Mürzzuschlag Bahnhof",15.6772435,47.6079099
"4",14:28:00,00:17:00,0,"8100030","Kindberg Bahnhof",15.448339,47.501146
"5",12:03:00,00:05:00,0,"8100031","Kapfenberg Bahnhof",15.292089,47.445195
"6",12:14:00,00:18:00,0,"8100032","Bruck/Mur Bahnhof",15.279495,47.413649
"7",12:08:00,00:19:00,0,"8100033","Frohnleiten Bahnhof",15.327111,47.266381
"8",12:08:00,00:26:00,0,"8100034","Peggau-Deutschfeistritz Bahnhof",15.343258,47.207237
"9",13:58:00,01:01:00,0,"8100035","Leibnitz Bahnhof",15.546851,46.781221
"10",12:15:00,00:10:00,0,"8100070","Leoben Hbf",15.08953,47.386567
"11",12:06:00,00:22:00,0,"8100071","St.Michael in Oberstmk Bahnhof",15.009178,47.34673
"12",12:15:00,00:30:00,0,"8100072","Knittelfeld Bahnhof",14.837616,47.215294
"13",12:15:00,00:43:00,0,"8100073","Judenburg Bahnhof",14.659907,47.174721
"14",12:15:00,00:57:00,0,"8100074","Unzmarkt Bahnhof",14.442321,47.201103
"15",14:15:00,01:28:00,0,"8100076","Friesach in Ktn Bahnhof",14.410265,46.953714
"16",13:58:00,01:14:00,0,"8100082","Spielfeld-Straß Bahnhof",15.629121,46.709581
"17",13:06:00,00:36:00,0,"8100125","Mautern in Stmk Bahnhof",14.836051,47.396784
"18",13:06:00,00:41:00,0,"8100126","Kalwang Bahnhof",14.74694,47.423689
"19",13:06:00,00:47:00,0,"8100127","Wald am Schoberpass Bahnhof",14.670787,47.450377
"20",13:06:00,00:58:00,0,"8100128","Trieben Bahnhof",14.489261,47.489196
"21",12:15:00,01:11:00,0,"8100131","Liezen Bahnhof",14.24187,47.562689
"22",12:15:00,01:21:00,0,"8100132","Stainach-Irdning Bahnhof",14.107181,47.529231
"23",12:15:00,00:56:00,0,"8100150","Selzthal Bahnhof",14.313198,47.55055
"24",12:58:00,00:35:00,0,"8100173","Graz Hbf",15.416464,47.072503
"25",13:45:00,01:25:00,0,"8100192","Bad Erlach Bahnhof",16.211851,47.732041
"26",12:58:00,00:54:00,0,"8100193","Raaba Bahnhof",15.496014,47.030133
"27",12:58:00,01:04:00,0,"8100194","Laßnitzhöhe Bahnhof",15.588409,47.078922
"28",12:58:00,01:14:00,0,"8100195","Gleisdorf Bahnhof",15.708938,47.099417
"29",13:58:00,01:23:00,0,"8100196","Studenzen-Fladnitz Bahnhof",15.774868,46.998822
"30",13:06:00,01:06:00,0,"8100309","Stadt Rottenmann Bahnhof",14.367096,47.527276
"31",12:58:00,01:20:00,0,"8100318","Takern-St.Margarethen Bahnhof",15.757852,47.045659
"32",12:08:00,00:34:00,0,"8100370","Gratwein-Gratkorn Bahnhof",15.323219,47.129044
"33",12:58:00,00:47:00,0,"8100371","Graz Ostbahnhof-Messe Bahnhof",15.447963,47.053828
"34",12:14:00,00:23:00,0,"8100383","Wartberg im Mürztal Bahnhof",15.483084,47.527277
"35",13:45:00,01:18:00,0,"8100516","Wr.Neustadt Hbf",16.233812,47.811693
"36",12:15:00,00:42:00,0,"8100518","Zeltweg Bahnhof",14.74794,47.189641
"37",12:15:00,01:29:00,0,"8100582","Pürgg Bahnhst",14.064623,47.528639
"38",14:28:00,01:30:00,0,"8100587","Schlöglmühl Bahnhof",15.91431,47.682529
"39",12:08:00,00:29:00,0,"8100590","Stübing Bahnhof",15.32245,47.177548
"40",12:58:00,01:02:00,0,"8100593","Werndorf Bahnhof",15.476977,46.916367
"41",12:58:00,00:52:00,0,"8100601","Flughafen Graz-Feldkirchen Bahnhof",15.449591,46.997729
"42",12:14:00,00:14:00,0,"8100613","Allerheiligen-Mürzhofen Bahnhof",15.402903,47.481997
"43",15:45:00,01:30:00,0,"8100653","Bad Fischau-Brunn Bahnhof",16.173144,47.826812
"44",14:28:00,01:02:00,0,"8100692","Breitenstein am Semmering Bahnhof",15.820529,47.660067
"45",14:28:00,01:14:00,0,"8100736","Eichberg am Semmering Bahnhof",15.911097,47.672179
"46",12:58:00,01:26:00,0,"8100763","Ehrenhausen an der Weinstraße Bahnhof",15.585574,46.727664
"47",12:06:00,00:40:00,0,"8100783","Fentsch-St.Lorenzen Bahnhof",14.892957,47.251727
"48",13:06:00,00:54:00,0,"8100819","Gaishorn am See Bahnhof",14.546568,47.489086
"49",13:06:00,00:34:00,0,"8101011","Judendorf-Straßengel Bahnhof",15.343931,47.11845
"50",12:58:00,00:56:00,0,"8101019","Kalsdorf b.Graz Bahnhof",15.470041,46.964295
"51",12:14:00,00:08:00,0,"8101032","Kapfenberg Fachhochschule Bahnhof",15.329131,47.454689
"52",14:28:00,01:09:00,0,"8101050","Klamm-Schottwien Bahnhof",15.872418,47.665159
"53",13:06:00,00:31:00,0,"8101061","Kammern im Liesingtal Bahnhof",14.903597,47.389901
"54",12:06:00,00:34:00,0,"8101076","Kraubath/Mur Bahnhof",14.945529,47.306004
"55",14:28:00,00:27:00,0,"8101080","Krieglach Bahnhof",15.560027,47.547165
"56",14:28:00,01:18:00,0,"8101097","Küb Bahnhof",15.876518,47.681479
"57",13:45:00,01:29:00,0,"8101104","Lanzenkirchen Bahnhof",16.24225,47.750674
"58",12:58:00,01:12:00,0,"8101137","Lebring Bahnhof",15.532246,46.854928
"59",13:58:00,01:30:00,0,"8101148","Lichendorf b.Mureck Bahnhof",15.698332,46.713905
"60",12:58:00,01:19:00,0,"8101161","Laßnitzthal Bahnhof",15.656264,47.088144
"61",12:14:00,00:33:00,0,"8101190","Langenwang/Mürz Bahnhof",15.613873,47.568134
"62",12:08:00,00:11:00,0,"8101210","Mixnitz-Bärenschützklamm Bahnhof",15.360285,47.331581
"63",14:28:00,00:24:00,0,"8101221","Mitterdorf-Veitsch Bahnhof",15.512378,47.536558
"64",12:14:00,00:11:00,0,"8101243","St.Marein im Mürztal-St.Lorenzen Bahnhof",15.373263,47.473265
"65",12:06:00,00:07:00,0,"8101275","Niklasdorf Bahnhof",15.1548082,47.3937447
"66",12:08:00,00:07:00,0,"8101370","Pernegg/Mur Bahnhof",15.343008,47.35947
"67",12:58:00,00:47:00,0,"8101398","Graz Puntigam Bahnhof",15.429247,47.030811
"68",12:58:00,01:29:00,0,"8101454","Rohr/Raab Bahnhof",15.812483,46.976287
"69",12:15:00,01:01:00,0,"8101504","St.Georgen ob Judenburg Bahnhof",14.498798,47.212198
"70",14:28:00,00:48:00,0,"8101520","Steinhaus am Semmering Bahnhof",15.784099,47.620892
"71",13:06:00,01:23:00,0,"8101538","Scheifling in Stmk Bahnhof",14.417111,47.149111
"72",14:28:00,00:44:00,0,"8101596","Spital am Semmering Bahnhof",15.748198,47.616474
"73",12:15:00,00:56:00,0,"8101678","Thalheim-Pöls Bahnhof",14.588583,47.19657
"74",12:58:00,01:07:00,0,"8101774","Wildon Bahnhof",15.521,46.884183
"75",14:28:00,00:56:00,0,"8101795","Wolfsbergkogel Bahnhof",15.827104,47.649617
"76",12:38:00,01:12:00,0,"8101918","Kaindorf/Sulm Bahnhst",15.542428,46.802172
"77",15:45:00,01:26:00,0,"8102017","Wr.Neustadt Anemonensee Bahnhof",16.209755,47.811918
"78",12:08:00,01:17:00,0,"8102050","Hart b.Graz Bahnhst",15.507476,47.041841
"79",12:58:00,00:50:00,0,"8103174","Feldkirchen-Seiersberg Bahnhst",15.440478,47.012604
"80",12:58:00,00:50:00,0,"8103487","Graz Liebenau Murpark Bahnhof",15.463079,47.039873
"81",12:58:00,00:43:00,0,"8103490","Graz Don Bosco Bahnhof",15.419569,47.058523
